name,  longitude (degree), latitude (degree), antennaSize, rx NF, Tx amplifierPower, band
Germantown-MD,-77.2667,39.1833,4,5,4,80,KA,2
Potomac-MD,-77.2167,39.0167,1,2,4,8,KU,2
NYC-NY,-75.2167,41.0167,5,4,2,40,C,2
LAX-CA,-90.2167,40.0167,3,2,3,60,X,2
Delhi-IN,93.2167,40.0167,4,3,3,65,C,2
Bombay-IN,90.2167,34.0167,5,4,4,70,C,2